{
    "type": "FeatureCollection",
    "features": [
        {
            "type": "Feature",
            "properties": {
                "name": "Westlands",
                "type": "commercial",
                "population_density": "high"
            },
            "geometry": {
                "type": "Point",
                "coordinates": [
                    36.7856,
                    -1.2789
                ]
            }
        },
        {
            "type": "Feature",
            "properties": {
                "name": "Karen",
                "type": "residential",
                "population_density": "medium"
            },
            "geometry": {
                "type": "Point",
                "coordinates": [
                    36.7336,
                    -1.3177
                ]
            }
        },
        {
            "type": "Feature",
            "properties": {
                "name": "Langata",
                "type": "mixed",
                "population_density": "medium"
            },
            "geometry": {
                "type": "Point",
                "coordinates": [
                    36.7656,
                    -1.3345
                ]
            }
        },
        {
            "type": "Feature",
            "properties": {
                "name": "Kasarani",
                "type": "residential",
                "population_density": "high"
            },
            "geometry": {
                "type": "Point",
                "coordinates": [
                    36.9256,
                    -1.2234
                ]
            }
        },
        {
            "type": "Feature",
            "properties": {
                "name": "Embakasi",
                "type": "residential",
                "population_density": "high"
            },
            "geometry": {
                "type": "Point",
                "coordinates": [
                    36.9278,
                    -1.3192
                ]
            }
        },
        {
            "type": "Feature",
            "properties": {
                "name": "Kilimani",
                "type": "commercial",
                "population_density": "high"
            },
            "geometry": {
                "type": "Point",
                "coordinates": [
                    36.8156,
                    -1.2956
                ]
            }
        },
        {
            "type": "Feature",
            "properties": {
                "name": "Kikuyu",
                "type": "residential",
                "population_density": "medium"
            },
            "geometry": {
                "type": "Point",
                "coordinates": [
                    36.9856,
                    -1.2456
                ]
            }
        },
        {
            "type": "Feature",
            "properties": {
                "name": "Ruiru",
                "type": "industrial",
                "population_density": "medium"
            },
            "geometry": {
                "type": "Point",
                "coordinates": [
                    36.9856,
                    -1.1456
                ]
            }
        }
    ]
}